     2.11           OBSERVATION DATA    R                   RINEX VERSION / TYPE
BLANK OR G = GPS,  R = GLONASS,  E = GALILEO,  M = MIXED    COMMENT             
GNSS-SDR            gaudima             14-JAN-19 15:26     PGM / RUN BY / DATE 
GLONASS OBSERVATION DATA FILE GENERATED BY GNSS-SDR         COMMENT             
GNSS-SDR VERSION 0.0.10                                     COMMENT             
See https://gnss-sdr.org                                    COMMENT             
DEFAULT MARKER NAME                                         MARKER NAME         
GROUND_CRAFT                                                MARKER NUMBER       
gaudima             CTTC                                    OBSERVER / AGENCY   
GNSS-SDR            Software Receiver   0.0.10              REC # / TYPE / VERS 
Antenna number      Antenna type                            ANT # / TYPE        
        0.0000        0.0000        0.0000                  APPROX POSITION XYZ 
        0.0000        0.0000        0.0000                  ANTENNA: DELTA H/E/N
     4    C1    L1    D1    S1                              # / TYPES OF OBSERV 
  2016    08    30    18    40   10.0000000     GLO         TIME OF FIRST OBS   
                                                            END OF HEADER       
 16  8 30 18 40 10.0000000  0  4R16R15R02R17                                    
  18179530.655 7    -46362.425 7      1221.725 7        42.782                  
  18967570.542 7    105883.879 7     -2764.973 7        46.818                  
  19187194.853 7   -112466.780 7      3065.244 7        43.554                  
  17936505.045 7     16212.579 7      -460.467 7        45.577                  
 16  8 30 18 40 11.0000000  0  4R16R15R02R17                                    
  18179306.023 7    -47583.080 7      1192.816 7        42.871                  
  18968087.422 7    108652.077 7     -2787.862 7        44.564                  
  19186623.812 6   -115524.354 6      3057.147 6        40.854                  
  17936595.551 7     16679.849 7      -487.352 7        47.179                  
 16  8 30 18 40 12.0000000  0  4R16R15R02R17                                    
  18179083.089 7    -48802.507 7      1231.528 7        43.595                  
  18968613.012 7    111421.052 7     -2777.101 7        44.777                  
  19186056.194 7   -118580.864 7      3057.642 7        45.380                  
  17936684.494 7     17147.713 7      -463.249 7        47.468                  
 16  8 30 18 40 13.0000000  0  4R16R15R02R17                                    
  18178848.799 6    -50024.342 6      1229.550 6        41.921                  
  18969125.254 7    114187.145 7     -2754.499 7        46.027                  
  19185484.555 7   -121640.090 7      3067.055 7        43.821                  
  17936766.084 8     17612.402 8      -463.260 8        48.090                  
 16  8 30 18 40 14.0000000  0  4R16R15R02R17                                    
  18178618.870 7    -51246.269 7      1234.347 7        42.007                  
  18969647.012 7    116952.740 7     -2768.868 7        46.296                  
  19184909.619 7   -124699.540 7      3066.313 7        44.975                  
  17936851.722 7     18076.354 7      -463.501 7        43.329                  
 16  8 30 18 40 15.0000000  0  4R16R15R02R17                                    
  18178387.100 6    -52466.140 6      1212.507 6        40.073                  
  18970166.536 7    119719.927 7     -2781.386 7        45.167                  
  19184344.744 7   -127757.123 7      3045.299 7        45.584                  
  17936937.975 8     18541.709 8      -468.265 8        48.320                  
 16  8 30 18 40 16.0000000  0  4R16R15R02R17                                    
  18178164.898 7    -53681.977 7      1199.956 7        44.230                  
  18970688.410 7    122490.714 7     -2765.160 7        42.109                  
  19183777.670 7   -130810.823 7      3041.865 7        44.583                  
  17937028.902 7     19010.403 7      -471.854 7        47.758                  
 16  8 30 18 40 17.0000000  0  4R16R15R02R17                                    
  18177930.850 6    -54897.368 6      1175.041 6        40.134                  
  18971202.966 7    125261.420 7     -2781.303 7        44.622                  
  19183199.214 6   -133864.466 6      3063.434 6        39.797                  
  17937112.743 8     19478.743 8      -469.230 8        48.707                  
 16  8 30 18 40 18.0000000  0  4R16R15R02R17                                    
  18177706.656 7    -56115.831 7      1215.999 7        47.978                  
  18971719.551 7    128028.709 7     -2772.224 7        45.692                  
  19182629.335 7   -136921.282 7      3072.534 7        42.049                  
  17937206.216 7     19943.437 7      -456.135 7        44.373                  
 16  8 30 18 40 19.0000000  0  4R16R15R02R17                                    
  18177474.993 7    -57336.063 7      1216.639 7        43.797                  
  18972231.864 7    130793.697 7     -2781.199 7        46.907                  
  19182057.786 6   -139980.141 6      3067.295 6        41.314                  
  17937289.575 8     20405.637 8      -476.083 8        50.563                  
 16  8 30 18 40 20.0000000  0  4R16R15R02R17                                    
  18177243.348 6    -58552.203 6      1231.402 6        39.077                  
  18972760.600 7    133562.389 7     -2781.806 7        45.696                  
  19181481.617 6   -143035.158 6      3049.672 6        41.858                  
  17937381.628 7     20871.239 7      -478.731 7        47.511                  
 16  8 30 18 40 21.0000000  0  4R16R15R02R17                                    
  18177023.809 6    -59754.021 6      1202.007 6        39.755                  
  18973278.980 6    136344.910 6     -2769.428 6        40.902                  
  19180905.287 8   -146076.111 8      3037.666 8        48.056                  
  17937473.162 7     21350.512 7      -481.090 7        46.703                  
 16  8 30 18 40 22.0000000  0  4R16R15R02R17                                    
  18176801.188 7    -60965.008 7      1218.463 7        43.591                  
  18973789.954 7    139117.757 7     -2754.685 7        45.647                  
  19180341.439 7   -149126.339 7      3041.321 7        47.938                  
  17937555.511 8     21819.835 8      -460.077 8        48.033                  
 16  8 30 18 40 23.0000000  0  4R16R15R02R17                                    
  18176573.170 7    -62171.259 7      1220.861 7        44.830                  
  18974311.399 7    141894.962 7     -2768.989 7        43.536                  
  19179760.553 8   -152172.016 8      3047.262 8        48.111                  
  17937638.468 8     22293.225 8      -460.338 8        48.070                  
 16  8 30 18 40 24.0000000  0  4R16R15R02R17                                    
  18176342.874 7    -63383.127 7      1202.760 7        43.345                  
  18974824.276 7    144666.098 7     -2773.713 7        47.059                  
  19179200.314 7   -155223.544 7      3060.281 7        45.097                  
  17937728.188 8     22760.345 8      -474.032 8        48.316                  
 16  8 30 18 40 25.0000000  0  4R16R15R02R17                                    
  18176125.802 7    -64590.823 7      1212.371 7        44.945                  
  18975349.044 6    147440.902 6     -2769.022 6        40.904                  
  19178628.774 7   -158271.188 7      3046.247 7        46.901                  
  17937819.847 8     23230.860 8      -471.459 8        49.518                  
 16  8 30 18 40 26.0000000  0  4R16R15R02R17                                    
  18175901.769 7    -65797.781 7      1198.777 7        44.355                  
  18975868.068 7    150216.053 7     -2787.851 7        43.529                  
  19178061.450 7   -161318.344 7      3050.938 7        45.325                  
  17937905.940 8     23701.473 8      -470.462 8        48.706                  
 16  8 30 18 40 27.0000000  0  4R16R15R02R17                                    
  18175670.079 7    -67003.164 7      1203.592 7        43.802                  
  18976383.160 7    152992.259 7     -2771.547 7        45.484                  
  19177484.549 7   -164364.165 7      3063.500 7        46.425                  
  17937992.569 8     24172.916 8      -476.789 8        49.451                  
 16  8 30 18 40 28.0000000  0  4R16R15R02R17                                    
  18175439.149 6    -68210.984 6      1215.084 6        41.812                  
  18976899.164 7    155765.604 7     -2779.251 7        44.383                  
  19176907.978 7   -167412.558 7      3050.520 7        45.849                  
  17938075.839 7     24641.281 7      -468.639 7        45.251                  
 16  8 30 18 40 29.0000000  0  4R16R15R02R17                                    
  18175217.796 7    -69415.523 7      1201.845 7        44.687                  
  18977419.233 6    158541.783 6     -2771.698 6        41.878                  
  19176335.767 7   -170457.955 7      3038.324 7        44.796                  
  17938169.794 7     25112.152 7      -479.591 7        47.999                  
 16  8 30 18 40 30.0000000  0  4R16R15R02R17                                    
  18174991.404 7    -70619.164 7      1186.438 7        42.151                  
  18977942.483 7    161318.400 7     -2775.091 7        42.812                  
  19175772.848 7   -173502.515 7      3031.600 7        46.792                  
  17938262.838 8     25583.322 8      -465.734 8        50.849                  
 16  8 30 18 40 31.0000000  0  4R16R15R02R17                                    
  18174764.370 7    -71822.719 7      1189.669 7        42.045                  
  18978462.105 7    164094.643 7     -2780.907 7        43.004                  
  19175200.191 7   -176547.239 7      3048.543 7        44.412                  
  17938349.869 7     26053.840 7      -476.251 7        45.746                  
 16  8 30 18 40 32.0000000  0  4R16R15R02R17                                    
  18174548.190 7    -73024.052 7      1184.164 7        43.426                  
  18978987.106 7    166872.716 7     -2780.975 7        44.173                  
  19174628.212 7   -179590.049 7      3045.278 7        43.546                  
  17938434.980 8     26525.907 8      -470.824 8        48.631                  
 16  8 30 18 40 33.0000000  0  4R16R15R02R17                                    
  18174316.652 6    -74222.055 6      1203.397 6        40.946                  
  18979501.966 7    169653.618 7     -2785.817 7        45.269                  
  19174061.693 7   -182629.693 7      3040.335 7        43.390                  
  17938522.502 7     27000.645 7      -465.873 7        47.905                  
 16  8 30 18 40 34.0000000  0  4R16R15R02R17                                    
  18174090.949 7    -75423.993 7      1215.632 7        42.704                  
  18980026.234 7    172430.030 7     -2790.705 7        43.882                  
  19173491.626 7   -185673.622 7      3044.318 7        45.898                  
  17938613.348 7     27470.654 7      -486.399 7        44.040                  
