     2.11           OBSERVATION DATA    M                   RINEX VERSION / TYPE
G = GPS  R = GLONASS  E = GALILEO  S = GEO  M = MIXED       COMMENT             
GNSS-SDR            gaudima             10-JAN-19 12:33     PGM / RUN BY / DATE 
MIXED (GPS/GLO) OBSERVATION DATA FILE GENERATED BY GNSS-SDR COMMENT             
GNSS-SDR VERSION 0.0.10                                     COMMENT             
See https://gnss-sdr.org                                    COMMENT             
GROUND_CRAFT                                                MARKER NUMBER       
NON_GEODETIC                                                MARKER TYPE         
gaudima             CTTC                                    OBSERVER / AGENCY   
GNSS-SDR            Software Receiver   0.0.10              REC # / TYPE / VERS 
Antenna number      Antenna type                            ANT # / TYPE        
        0.0000        0.0000        0.0000                  APPROX POSITION XYZ 
        0.0000        0.0000        0.0000                  ANTENNA: DELTA H/E/N
     4    C1    L1    D1    S1                              # / TYPES OF OBSERV 
  2017    10    16    09    25   19.4000000     GPS         TIME OF FIRST OBS   
                                                            END OF HEADER       
 17 10 16 09 25 20.0000000  0  6G11G10G08G15G18G21                              
  21438763.718 7    247148.096 7     -4041.084 7        44.809                  
  17876466.061 7      4200.024 7       -51.731 7        45.055                  
  18489348.729 8     84745.483 8     -1365.153 8        49.406                  
  22147601.020 7   -157312.359 7      2597.728 7        45.017                  
  19387578.724 7   -105279.396 7      1750.566 7        46.346                  
  21686231.679 6   -145057.076 6      2406.171 6        41.685                  
 17 10 16 09 25 21.0000000  0  6G11G10G08G15G18G21                              
  21437998.719 7    251187.740 7     -4040.237 7        46.134                  
  17876455.344 7      4250.614 7       -49.666 7        47.631                  
  18489088.547 8     86110.444 8     -1364.120 8        50.514                  
  22148099.610 7   -159912.964 7      2591.267 7        43.881                  
  19387911.914 8   -107028.116 8      1747.046 8        48.341                  
  21686695.139 6   -147474.431 6      2420.226 6        41.077                  
 17 10 16 09 25 22.0000000  0  6G11G10G08G15G18G21                              
  21437228.443 7    255227.273 7     -4044.432 7        45.796                  
  17876444.408 7      4300.645 7       -46.568 7        45.365                  
  18488828.883 8     87474.818 8     -1366.272 8        50.157                  
  22148591.665 7   -162513.977 7      2603.054 7        45.409                  
  19388244.077 8   -108777.138 8      1746.962 8        48.229                  
  21687154.252 7   -149891.867 7      2417.087 7        42.365                  
 17 10 16 09 25 23.0000000  0  6G11G10G08G15G18G21                              
  21436461.965 7    259266.496 7     -4041.471 7        44.811                  
  17876432.534 7      4349.935 7       -49.650 7        43.701                  
  18488570.497 8     88838.410 8     -1360.567 8        50.275                  
  22149086.677 7   -165115.535 7      2600.820 7        44.643                  
  19388577.839 7   -110526.641 7      1752.964 7        46.799                  
  21687616.046 6   -152309.624 6      2419.266 6        41.581                  
 17 10 16 09 25 24.0000000  0  6G11G10G08G15G18G21                              
  21435691.747 7    263305.575 7     -4037.420 7        45.727                  
  17876418.623 7      4398.648 7       -45.659 7        44.790                  
  18488311.504 8     90201.417 8     -1362.715 8        51.061                  
  22149581.833 7   -167717.529 7      2602.621 7        45.313                  
  19388910.694 7   -112276.477 7      1749.179 7        47.640                  
  21688079.577 7   -154727.483 7      2415.073 7        43.869                  
 17 10 16 09 25 25.0000000  0  6G11G10G08G15G18G21                              
  21434922.986 7    267344.447 7     -4036.561 7        44.175                  
  17876411.954 7      4446.694 7       -41.854 7        45.534                  
  18488049.472 8     91563.757 8     -1361.205 8        51.742                  
  22150079.547 7   -170320.000 7      2600.490 7        43.486                  
  19389242.428 7   -114026.726 7      1750.731 7        47.974                  
  21688539.794 7   -157145.598 7      2416.793 7        44.052                  
 17 10 16 09 25 26.0000000  0  6G11G10G08G15G18G21                              
  21434157.669 7    271383.221 7     -4035.448 7        44.790                  
  17876402.586 7      4494.217 7       -48.341 7        45.975                  
  18487791.064 8     92925.550 8     -1360.087 8        51.095                  
  22150571.258 7   -172922.815 7      2599.958 7        43.664                  
  19389572.523 7   -115777.229 7      1746.356 7        47.509                  
  21688998.268 6   -159563.806 6      2408.270 6        39.706                  
 17 10 16 09 25 27.0000000  0  6G11G10G08G15G18G21                              
  21433388.426 7    275421.981 7     -4034.446 7        43.359                  
  17876391.096 7      4541.268 7       -42.255 7        44.576                  
  18487530.502 8     94286.834 8     -1362.419 8        50.632                  
  22151072.962 7   -175525.985 7      2606.600 7        44.740                  
  19389907.518 7   -117527.972 7      1753.317 7        46.816                  
  21689457.279 6   -161982.013 6      2412.206 6        41.917                  
 17 10 16 09 25 28.0000000  0  6G11G10G08G15G18G21                              
  21432616.149 7    279460.623 7     -4032.044 7        44.757                  
  17876386.866 7      4587.739 7       -46.216 7        45.097                  
  18487269.163 8     95647.536 8     -1360.879 8        52.820                  
  22151561.693 7   -178129.485 7      2597.153 7        44.574                  
  19390237.970 7   -119279.012 7      1740.304 7        45.480                  
  21689914.355 6   -164400.366 6      2421.933 6        39.632                  
 17 10 16 09 25 29.0000000  0  6G11G10G08G15G18G21                              
  21431853.459 7    283499.275 7     -4042.099 7        44.076                  
  17876381.054 7      4633.835 7       -41.687 7        45.710                  
  18487011.675 8     97007.796 8     -1359.257 8        50.439                  
  22152061.892 7   -180733.275 7      2602.804 7        46.495                  
  19390570.628 7   -121030.215 7      1754.136 7        44.938                  
  21690378.302 6   -166818.700 6      2427.243 6        41.766                  
 17 10 16 09 25 30.0000000  0  6G11G10G08G15G18G21                              
  21431080.132 7    287537.731 7     -4040.183 7        44.222                  
  17876373.040 7      4679.264 7       -48.274 7        45.203                  
  18486753.267 8     98367.388 8     -1361.821 8        48.189                  
  22152559.576 7   -183337.523 7      2607.581 7        43.920                  
  19390901.330 7   -122781.843 7      1750.327 7        43.938                  
  21690840.292 6   -169237.225 6      2424.066 6        39.486                  
 17 10 16 09 25 31.0000000  0  6G11G10G08G15G18G21                              
  21430314.034 7    291575.709 7     -4031.672 7        46.087                  
  17876363.247 7      4723.780 7       -39.768 7        46.393                  
  18486494.416 8     99726.030 8     -1358.009 8        49.975                  
  22153058.577 7   -185942.525 7      2606.889 7        44.718                  
  19391240.650 7   -124534.104 7      1757.576 7        44.656                  
  21691295.036 6   -171656.226 6      2409.287 6        41.180                  
 17 10 16 09 25 32.0000000  0  6G11G10G08G15G18G21                              
  21429548.645 7    295613.060 7     -4042.627 7        43.679                  
  17876350.158 8      4767.203 8       -40.741 8        48.248                  
  18486238.474 8    101083.581 8     -1355.711 8        50.002                  
  22153554.545 7   -188548.429 7      2601.655 7        43.555                  
  19391575.948 7   -126287.184 7      1745.289 7        46.502                  
  21691759.059 6   -174075.883 6      2425.382 6        41.805                  
 17 10 16 09 25 33.0000000  0  6G11G10G08G15G18G21                              
  21428781.586 7    299649.541 7     -4038.071 7        47.965                  
  17876343.109 7      4809.373 7       -42.062 7        44.769                  
  18485983.121 8    102439.824 8     -1358.681 8        51.224                  
  22154046.135 7   -191155.447 7      2609.561 7        43.599                  
  19391909.478 7   -128041.332 7      1756.452 7        45.958                  
  21692213.553 6   -176496.365 6      2420.974 6        39.543                  
 17 10 16 09 25 34.0000000  0  6G11G10G08G15G18G21                              
  21428014.340 7    303685.487 7     -4034.301 7        44.495                  
  17876333.884 7      4850.522 7       -40.980 7        44.708                  
  18485723.252 8    103795.054 8     -1357.199 8        50.628                  
  22154541.291 7   -193763.308 7      2608.777 7        42.875                  
  19392244.268 7   -129796.208 7      1757.055 7        46.993                  
  21692679.743 6   -178917.423 6      2420.500 6        39.238                  
 17 10 16 09 25 35.0000000  0  6G11G10G08G15G18G21                              
  21427243.032 7    307720.869 7     -4034.623 7        46.255                  
  17876329.712 7      4890.667 7       -35.518 7        45.489                  
  18485466.518 8    105149.268 8     -1355.030 8        49.433                  
  22155039.037 7   -196371.978 7      2604.790 7        45.892                  
  19392576.073 8   -131551.812 8      1751.330 8        48.361                  
  21693136.216 7   -181339.036 7      2411.335 7        42.499                  
 17 10 16 09 25 36.0000000  0  6G11G10G08G15G18G21                              
  21426474.870 7    311755.864 7     -4035.642 7        47.087                  
  17876321.269 7      4930.007 7       -36.180 7        45.762                  
  18485207.239 8    106502.638 8     -1353.771 8        52.032                  
  22155533.227 7   -198981.293 7      2613.467 7        45.709                  
  19392913.141 7   -133307.990 7      1751.071 7        47.547                  
  21693595.807 6   -183761.029 6      2423.936 6        40.070                  
 17 10 16 09 25 37.0000000  0  6G11G10G08G15G18G21                              
  21425706.720 7    315791.396 7     -4034.378 7        43.926                  
  17876310.632 7      4969.427 7       -29.868 7        44.676                  
  18484949.657 8    107856.067 8     -1353.242 8        51.542                  
  22156028.838 7   -201590.374 7      2610.872 7        45.574                  
  19393247.077 7   -135063.822 7      1756.729 7        47.062                  
  21694056.435 7   -186182.475 7      2413.685 7        42.468                  
 17 10 16 09 25 38.0000000  0  6G11G10G08G15G18G21                              
  21424942.105 7    319826.689 7     -4036.592 7        46.108                  
  17876304.271 7      5008.191 7       -43.821 7        46.766                  
  18484692.933 8    109208.809 8     -1354.564 8        50.514                  
  22156530.524 7   -204199.929 7      2601.468 7        45.392                  
  19393582.702 7   -136820.073 7      1759.435 7        45.648                  
  21694519.743 6   -188604.166 6      2419.492 6        39.304                  
 17 10 16 09 25 39.0000000  0  6G11G10G08G15G18G21                              
  21424173.478 7    323861.352 7     -4038.175 7        43.494                  
  17876300.679 7      5045.872 7       -36.627 7        44.812                  
  18484434.779 8    110560.434 8     -1351.827 8        52.879                  
  22157023.347 7   -206810.412 7      2608.871 7        43.114                  
  19393913.561 7   -138577.150 7      1758.866 7        47.276                  
  21694977.328 6   -191026.448 6      2417.629 6        39.309                  
 17 10 16 09 25 40.0000000  0  6G11G10G08G15G18G21                              
  21423405.150 7    327895.829 7     -4031.140 7        46.020                  
  17876289.435 7      5082.943 7       -37.098 7        46.809                  
  18484178.372 8    111911.421 8     -1352.053 8        51.705                  
  22157519.199 7   -209421.311 7      2607.200 7        42.497                  
  19394250.897 7   -140334.594 7      1757.560 7        46.011                  
  21695443.013 6   -193448.962 6      2423.625 6        41.571                  
 17 10 16 09 25 41.0000000  0  6G11G10G08G15G18G21                              
  21422632.306 7    331930.038 7     -4033.988 7        45.867                  
  17876282.283 7      5119.283 7       -36.875 7        46.085                  
  18483922.912 8    113261.662 8     -1350.350 8        50.760                  
  22158022.015 7   -212032.810 7      2617.228 7        45.277                  
  19394584.636 7   -142092.489 7      1757.780 7        47.974                  
  21695907.116 6   -195871.720 6      2426.768 6        41.601                  
 17 10 16 09 25 42.0000000  0  6G11G10G08G15G18G21                              
  21421865.564 7    335963.311 7     -4032.517 7        44.872                  
  17876274.001 7      5154.248 7       -37.693 7        46.828                  
  18483668.242 8    114610.487 8     -1346.007 8        51.912                  
  22158514.642 7   -214645.467 7      2620.466 7        45.386                  
  19394918.626 7   -143851.520 7      1765.691 7        47.321                  
  21696360.525 7   -198295.429 7      2428.189 7        43.466                  
 17 10 16 09 25 43.0000000  0  6G11G10G08G15G18G21                              
  21421099.448 7    339995.258 7     -4037.093 7        45.322                  
  17876270.570 7      5187.464 7       -35.417 7        45.834                  
  18483409.602 8    115957.552 8     -1344.997 8        50.959                  
  22159010.637 6   -217259.754 6      2610.977 6        41.869                  
  19395253.720 7   -145612.057 7      1762.292 7        47.907                  
  21696820.487 7   -200720.474 7      2431.394 7        42.325                  
 17 10 16 09 25 44.0000000  0  6G11G10G08G15G18G21                              
  21420329.101 7    344026.710 7     -4028.659 7        45.269                  
  17876273.067 7      5219.753 7       -32.891 7        44.230                  
  18483154.562 8    117303.660 8     -1344.532 8        49.763                  
  22159504.564 7   -219874.750 7      2606.153 7        45.956                  
  19395589.237 8   -147373.274 8      1761.887 8        48.043                  
  21697286.332 6   -203145.988 6      2429.200 6        40.438                  
 17 10 16 09 25 45.0000000  0  6G11G10G08G15G18G21                              
  21419563.757 7    348058.129 7     -4031.253 7        43.373                  
  17876268.497 7      5251.507 7       -31.666 7        43.409                  
  18482895.876 8    118649.263 8     -1345.824 8        52.675                  
  22160005.615 7   -222490.129 7      2616.471 7        43.537                  
  19395925.791 8   -149134.728 8      1771.545 8        48.162                  
  21697747.670 6   -205571.542 6      2420.409 6        40.762                  
 17 10 16 09 25 46.0000000  0  6G11G10G08G15G18G21                              
  21418794.308 7    352089.332 7     -4026.984 7        45.836                  
  17876260.581 7      5282.656 7       -36.766 7        45.261                  
  18482639.733 8    119994.205 8     -1345.181 8        49.964                  
  22160497.165 7   -225105.970 7      2619.165 7        42.217                  
  19396257.427 7   -150896.562 7      1763.011 7        47.814                  
  21698208.119 7   -207997.325 7      2415.900 7        42.588                  
 17 10 16 09 25 47.0000000  0  6G11G10G08G15G18G21                              
  21418027.378 7    356120.887 7     -4029.115 7        45.425                  
  17876254.840 7      5313.715 7       -33.039 7        46.289                  
  18482383.486 8    121339.033 8     -1340.231 8        51.358                  
  22160999.321 7   -227721.685 7      2615.629 7        44.869                  
  19396595.366 7   -152658.243 7      1762.150 7        47.057                  
  21698666.946 6   -210422.765 6      2422.968 6        41.918                  
 17 10 16 09 25 48.0000000  0  6G11G10G08G15G18G21                              
  21417261.396 7    360152.333 7     -4033.794 7        46.543                  
  17876248.010 7      5344.228 7       -37.046 7        46.239                  
  18482127.477 8    122683.282 8     -1344.387 8        50.524                  
  22161495.753 7   -230337.785 7      2625.446 7        43.426                  
  19396931.438 7   -154420.212 7      1756.999 7        47.579                  
  21699131.483 7   -212848.290 7      2423.004 7        43.050                  
 17 10 16 09 25 49.0000000  0  6G11G10G08G15G18G21                              
  21416492.572 7    364183.885 7     -4025.862 7        45.585                  
  17876240.501 7      5374.416 7       -30.742 7        46.565                  
  18481870.552 8    124027.192 8     -1345.738 8        49.628                  
  22161997.382 7   -232954.052 7      2608.325 7        44.249                  
  19397264.883 7   -156182.242 7      1765.323 7        47.702                  
  21699593.518 6   -215273.692 6      2426.336 6        41.296                  
 17 10 16 09 25 50.0000000  0  6G11G10G08G15G18G21                              
  21415725.120 7    368215.249 7     -4029.319 7        44.381                  
  17876230.485 7      5403.947 7       -28.285 7        44.411                  
  18481617.969 8    125370.430 8     -1343.480 8        51.508                  
  22162492.161 7   -235570.797 7      2622.279 7        45.787                  
  19397600.454 8   -157944.669 8      1760.638 8        49.752                  
  21700052.537 7   -217699.310 7      2425.609 7        42.519                  
 17 10 16 09 25 51.0000000  0  6G11G10G08G15G18G21                              
  21414964.409 7    372246.486 7     -4029.716 7        46.411                  
  17876224.843 7      5432.981 7       -24.270 7        44.944                  
  18481361.727 8    126713.108 8     -1342.381 8        51.105                  
  22162993.705 7   -238187.895 7      2621.588 7        44.311                  
  19397933.957 7   -159707.396 7      1763.669 7        45.507                  
  21700519.330 7   -220125.008 7      2435.258 7        42.062                  
 17 10 16 09 25 52.0000000  0  6G11G10G08G15G18G21                              
  21414190.971 7    376277.392 7     -4033.354 7        47.208                  
  17876218.374 7      5461.179 7       -24.560 7        43.892                  
  18481105.744 8    128054.950 8     -1340.482 8        50.703                  
  22163493.126 7   -240805.616 7      2611.255 7        45.134                  
  19398269.492 8   -161470.634 8      1765.008 8        48.335                  
  21700985.385 7   -222551.079 7      2423.422 7        44.606                  
 17 10 16 09 25 53.0000000  0  6G11G10G08G15G18G21                              
  21413423.255 7    380307.975 7     -4035.714 7        43.849                  
  17876205.522 7      5488.628 7       -28.161 7        43.819                  
  18480851.356 8    129396.015 8     -1341.194 8        53.441                  
  22163990.667 7   -243423.923 7      2623.235 7        42.690                  
  19398606.038 7   -163234.381 7      1760.149 7        47.858                  
  21701439.602 7   -224977.468 7      2424.586 7        44.782                  
 17 10 16 09 25 54.0000000  0  6G11G10G08G15G18G21                              
  21412658.496 7    384338.578 7     -4031.636 7        43.280                  
  17876202.775 7      5515.692 7       -35.998 7        43.643                  
  18480597.411 8    130736.648 8     -1338.231 8        50.095                  
  22164490.633 7   -246042.470 7      2625.506 7        42.884                  
  19398943.079 7   -164998.284 7      1761.969 7        47.466                  
  21701906.797 7   -227403.815 7      2421.443 7        45.029                  
 17 10 16 09 25 55.0000000  0  6G11G10G08G15G18G21                              
  21411886.800 7    388369.010 7     -4030.388 7        44.715                  
  17876202.967 7      5542.102 7       -27.162 7        42.232                  
  18480342.893 8    132076.627 8     -1339.301 8        49.126                  
  22164992.199 7   -248661.474 7      2617.532 7        43.355                  
  19399277.636 7   -166762.556 7      1765.712 7        47.274                  
  21702360.791 7   -229830.358 7      2426.153 7        45.511                  
 17 10 16 09 25 56.0000000  0  6G11G10G08G15G18G21                              
  21411118.629 7    392399.835 7     -4034.894 7        45.698                  
  17876197.195 7      5568.497 7       -28.757 7        47.154                  
  18480087.692 8    133416.529 8     -1342.468 8        49.128                  
  22165491.589 7   -251280.349 7      2624.777 7        45.682                  
  19399617.192 7   -168526.614 7      1765.758 7        47.307                  
  21702825.416 6   -232256.514 6      2425.661 6        41.469                  
 17 10 16 09 25 57.0000000  0  6G11G10G08G15G18G21                              
  21410353.803 7    396431.027 7     -4030.159 7        43.960                  
  17876190.758 7      5594.808 7       -30.253 7        46.400                  
  18479832.094 8    134756.352 8     -1340.045 8        52.961                  
  22165988.593 7   -253899.114 7      2616.786 7        45.727                  
  19399949.667 7   -170290.469 7      1763.322 7        47.543                  
  21703286.335 7   -234682.270 7      2427.729 7        43.322                  
 17 10 16 09 25 58.0000000  0  6G11G10G08G15G18G21                              
  21409585.114 7    400462.962 7     -4025.226 7        45.180                  
  17876185.964 7      5621.440 7       -23.154 7        44.398                  
  18479577.063 8    136096.481 8     -1337.460 8        51.505                  
  22166486.424 7   -256517.393 7      2617.535 7        43.895                  
  19400286.436 7   -172053.760 7      1762.689 7        47.562                  
  21703748.794 7   -237107.270 7      2426.795 7        45.139                  
 17 10 16 09 25 59.0000000  0  6G11G10G08G15G18G21                              
  21408817.679 7    404495.810 7     -4031.563 7        44.553                  
  17876182.185 7      5648.517 7       -29.946 7        46.530                  
  18479318.761 8    137437.020 8     -1339.555 8        50.243                  
  22166982.558 7   -259135.039 7      2617.040 7        43.393                  
  19400622.820 7   -173816.366 7      1763.138 7        46.045                  
  21704211.789 7   -239531.410 7      2424.031 7        44.906                  
 17 10 16 09 26  0.0000000  0  6G11G10G08G15G18G21                              
  21408051.630 7    408528.955 7     -4031.914 7        43.961                  
  17876175.649 7      5675.459 7       -22.100 7        43.919                  
  18479064.628 8    138777.408 8     -1340.470 8        51.452                  
  22167484.244 7   -261752.662 7      2622.697 7        45.708                  
  19400957.476 7   -175578.849 7      1765.231 7        47.102                  
  21704669.678 7   -241955.211 7      2412.431 7        44.171                  
 17 10 16 09 26  1.0000000  0  6G11G10G08G15G18G21                              
  21407282.306 7    412562.270 7     -4036.814 7        44.176                  
  17876166.340 7      5702.162 7       -25.795 7        46.907                  
  18478808.936 8    140117.525 8     -1339.300 8        49.512                  
  22167983.250 7   -264370.350 7      2621.310 7        46.392                  
  19401295.084 8   -177341.326 8      1766.130 8        48.234                  
  21705133.522 7   -244378.857 7      2421.355 7        45.681                  
 17 10 16 09 26  2.0000000  0  6G11G10G08G15G18G21                              
  21406511.847 7    416594.667 7     -4031.623 7        46.133                  
  17876161.189 7      5727.517 7       -20.221 7        47.718                  
  18478554.088 8    141456.250 8     -1336.124 8        50.880                  
  22168481.130 7   -266989.233 7      2618.422 7        45.738                  
  19401625.871 8   -179104.914 8      1768.448 8        49.281                  
  21705591.599 7   -246803.406 7      2430.731 7        44.334                  
 17 10 16 09 26  3.0000000  0  6G11G10G08G15G18G21                              
  21405744.878 7    420627.334 7     -4024.359 7        46.155                  
  17876156.096 7      5752.685 7       -27.078 7        45.450                  
  18478297.484 8    142794.787 8     -1337.686 8        53.368                  
  22168977.219 7   -269608.104 7      2616.330 7        44.425                  
  19401963.922 8   -180868.422 8      1763.380 8        48.182                  
  21706055.993 7   -249227.692 7      2430.119 7        43.413                  
 17 10 16 09 26  4.0000000  0  6G11G10G08G15G18G21                              
  21404982.938 7    424660.276 7     -4029.399 7        45.554                  
  17876151.138 7      5777.676 7       -24.802 7        47.434                  
  18478041.600 8    144133.133 8     -1335.440 8        49.743                  
  22169477.658 7   -272226.984 7      2617.426 7        46.236                  
  19402299.681 7   -182631.843 7      1761.120 7        46.962                  
  21706515.611 7   -251651.691 7      2424.880 7        43.758                  
 17 10 16 09 26  5.0000000  0  6G11G10G08G15G18G21                              
  21404211.202 7    428692.703 7     -4037.080 7        44.398                  
  17876149.489 7      5801.723 7       -24.744 7        43.684                  
  18477787.475 8    145470.480 8     -1334.950 8        50.151                  
  22169971.469 7   -274846.662 7      2623.779 7        44.408                  
  19402635.194 8   -184395.975 8      1767.226 8        49.817                  
  21706974.103 7   -254076.246 7      2426.637 7        44.422                  
 17 10 16 09 26  6.0000000  0  6G11G10G08G15G18G21                              
  21403448.208 7    432724.744 7     -4029.513 7        47.067                  
  17876144.093 7      5824.954 7       -19.005 7        44.553                  
  18477531.006 8    146806.993 8     -1333.407 8        50.097                  
  22170473.244 7   -277466.954 7      2612.388 7        46.560                  
  19402971.569 7   -186160.638 7      1763.778 7        47.584                  
  21707438.041 7   -256501.129 7      2429.697 7        42.868                  
 17 10 16 09 26  7.0000000  0  6G11G10G08G15G18G21                              
  21402677.468 7    436757.034 7     -4034.984 7        45.931                  
  17876143.789 7      5847.994 7       -24.942 7        43.222                  
  18477276.158 8    148143.275 8     -1335.826 8        50.474                  
  22170971.401 7   -280087.268 7      2616.451 7        44.453                  
  19403305.251 8   -187925.274 8      1761.379 8        50.846                  
  21707900.728 7   -258925.807 7      2426.127 7        43.040                  
 17 10 16 09 26  8.0000000  0  6G11G10G08G15G18G21                              
  21401911.132 7    440788.970 7     -4025.709 7        43.673                  
  17876135.248 7      5870.239 7       -23.597 7        43.232                  
  18477021.833 8    149478.753 8     -1336.793 8        51.147                  
  22171469.371 7   -282708.215 7      2616.562 7        46.283                  
  19403640.059 7   -189690.427 7      1759.008 7        46.100                  
  21708356.107 7   -261350.826 7      2430.252 7        43.885                  
 17 10 16 09 26  9.0000000  0  6G11G10G08G15G18G21                              
  21401141.362 7    444820.467 7     -4033.396 7        46.096                  
  17876132.607 7      5891.623 7       -14.365 7        46.108                  
  18476767.945 8    150813.327 8     -1334.239 8        50.783                  
  22171970.838 7   -285329.857 7      2623.167 7        47.972                  
  19403977.846 7   -191456.199 7      1762.567 7        47.756                  
  21708819.116 7   -263776.253 7      2424.236 7        44.353                  
 17 10 16 09 26 10.0000000  0  6G11G10G08G15G18G21                              
  21400376.121 7    448851.672 7     -4030.899 7        46.521                  
  17876128.810 7      5912.254 7       -19.976 7        43.694                  
  18476515.429 8    152147.144 8     -1333.421 8        50.871                  
  22172469.259 7   -287952.081 7      2632.579 7        45.817                  
  19404315.423 7   -193222.447 7      1764.816 7        47.519                  
  21709280.976 7   -266201.981 7      2422.835 7        42.328                  
 17 10 16 09 26 11.0000000  0  6G11G10G08G15G18G21                              
  21399610.451 8    452882.617 8     -4038.764 8        48.171                  
  17876121.980 7      5932.227 7       -20.085 7        47.524                  
  18476266.446 8    153480.245 8     -1336.742 8        49.805                  
  22172965.857 7   -290574.803 7      2625.775 7        43.998                  
  19404651.691 7   -194989.133 7      1765.110 7        47.598                  
  21709741.689 6   -268627.966 6      2426.620 6        41.964                  
 17 10 16 09 26 12.0000000  0  6G11G10G08G15G18G21                              
  21398843.267 7    456913.248 7     -4038.178 7        43.298                  
  17876118.951 7      5951.418 7       -22.921 7        45.497                  
  18476011.924 8    154812.543 8     -1329.211 8        51.821                  
  22173467.561 7   -293198.107 7      2626.546 7        43.930                  
  19404989.036 7   -196756.334 7      1768.662 7        46.378                  
  21710205.537 7   -271054.268 7      2423.887 7        42.943                  
 17 10 16 09 26 13.0000000  0  6G11G10G08G15G18G21                              
  21398076.328 7    460943.831 7     -4027.115 7        46.786                  
  17876119.657 7      5970.150 7       -22.619 7        44.016                  
  18475759.761 8    156144.356 8     -1335.117 8        52.081                  
  22173966.786 7   -295821.723 7      2620.755 7        45.858                  
  19405328.985 7   -198523.736 7      1768.081 7        47.896                  
  21710672.325 7   -273480.597 7      2429.395 7        43.461                  
 17 10 16 09 26 14.0000000  0  6G11G10G08G15G18G21                              
  21397307.473 7    464974.310 7     -4028.962 7        46.331                  
  17876118.294 7      5988.314 7       -21.847 7        43.114                  
  18475503.783 8    157475.583 8     -1326.865 8        50.810                  
  22174465.305 7   -298445.720 7      2621.008 7        45.138                  
  19405664.217 7   -200291.441 7      1769.980 7        47.443                  
  21711132.127 7   -275907.030 7      2427.945 7        42.083                  
 17 10 16 09 26 15.0000000  0  6G11G10G08G15G18G21                              
  21396539.976 6    469004.450 6     -4032.791 6        41.856                  
  17876119.371 7      6005.717 7       -14.628 7        44.773                  
  18475251.718 8    158806.010 8     -1329.955 8        51.618                  
  22174962.957 7   -301070.312 7      2625.527 7        43.483                  
  19406001.320 8   -202059.675 8      1767.696 8        48.228                  
  21711593.085 6   -278333.841 6      2438.009 6        41.190                  
 17 10 16 09 26 16.0000000  0  6G11G10G08G15G18G21                              
  21395778.479 7    473034.210 7     -4023.847 7        42.353                  
  17876115.668 7      6022.308 7        -7.993 7        43.802                  
  18474997.714 8    160135.635 8     -1330.081 8        51.338                  
  22175459.287 7   -303695.543 7      2626.141 7        44.284                  
  19406332.469 7   -203828.452 7      1768.514 7        47.179                  
  21712053.713 6   -280760.972 6      2435.157 6        41.938                  
 17 10 16 09 26 17.0000000  0  6G11G10G08G15G18G21                              
  21395010.008 7    477063.633 7     -4030.911 7        44.858                  
  17876112.956 7      6038.118 7       -19.861 7        43.766                  
  18474745.654 8    161464.410 8     -1331.757 8        48.545                  
  22175958.749 7   -306321.380 7      2634.809 7        47.243                  
  19406672.132 7   -205597.765 7      1769.909 7        47.257                  
  21712513.751 6   -283188.491 6      2431.666 6        40.247                  
 17 10 16 09 26 18.0000000  0  6G11G10G08G15G18G21                              
  21394244.397 7    481092.900 7     -4025.536 7        46.613                  
  17876108.189 7      6053.334 7        -8.302 7        46.439                  
  18474491.771 8    162792.587 8     -1327.612 8        49.817                  
  22176461.802 7   -308947.618 7      2622.865 7        45.258                  
  19407010.147 8   -207367.398 8      1766.798 8        48.833                  
  21712975.513 7   -285616.114 7      2426.126 7        45.464                  
 17 10 16 09 26 19.0000000  0  6G11G10G08G15G18G21                              
  21393475.935 7    485121.948 7     -4025.930 7        46.839                  
  17876106.184 7      6067.896 7       -15.229 7        47.073                  
  18474241.359 8    164120.075 8     -1328.286 8        51.906                  
  22176959.660 7   -311574.341 7      2619.926 7        44.415                  
  19407343.816 7   -209137.440 7      1772.786 7        46.445                  
  21713441.702 6   -288043.988 6      2434.903 6        41.392                  
 17 10 16 09 26 20.0000000  0  6G11G10G08G15G18G21                              
  21392712.021 7    489150.642 7     -4032.201 7        45.073                  
  17876097.584 7      6081.690 7       -15.045 7        45.547                  
  18473987.498 8    165446.762 8     -1323.071 8        50.756                  
  22177460.153 7   -314201.675 7      2616.888 7        45.471                  
  19407684.171 8   -210908.022 8      1775.657 8        48.034                  
  21713901.276 7   -290472.188 7      2422.325 7        43.531                  
 17 10 16 09 26 21.0000000  0  6G11G10G08G15G18G21                              
  21391946.096 7    493179.505 7     -4023.676 7        44.475                  
  17876099.081 7      6095.217 7        -8.571 7        46.114                  
  18473736.345 8    166773.142 8     -1326.248 8        51.910                  
  22177959.677 7   -316829.094 7      2626.134 7        44.486                  
  19408021.422 7   -212678.596 7      1768.627 7        47.080                  
  21714362.775 6   -292900.226 6      2427.628 6        40.220                  
 17 10 16 09 26 22.0000000  0  6G11G10G08G15G18G21                              
  21391176.406 7    497207.508 7     -4025.716 7        44.432                  
  17876095.569 7      6107.439 7        -9.171 7        45.766                  
  18473483.560 8    168098.186 8     -1324.130 8        50.472                  
  22178458.964 7   -319457.646 7      2629.980 7        43.242                  
  19408355.698 7   -214450.231 7      1769.363 7        46.536                  
  21714827.749 7   -295329.101 7      2429.933 7        43.158                  
 17 10 16 09 26 23.0000000  0  6G11G10G08G15G18G21                              
  21390409.235 7    501234.775 7     -4025.333 7        44.101                  
  17876092.206 7      6118.501 7       -11.656 7        45.411                  
  18473232.845 8    169422.059 8     -1323.867 8        51.394                  
  22178961.901 7   -322087.208 7      2631.034 7        45.227                  
  19408692.744 7   -216222.783 7      1776.087 7        46.701                  
  21715293.978 7   -297758.728 7      2425.678 7        43.319                  
 17 10 16 09 26 24.0000000  0  6G11G10G08G15G18G21                              
  21389642.167 7    505261.589 7     -4029.836 7        45.257                  
  17876090.276 7      6128.660 7       -10.036 7        46.306                  
  18472980.896 8    170744.988 8     -1320.225 8        50.065                  
  22179461.926 7   -324717.476 7      2639.813 7        47.399                  
  19409026.492 7   -217995.961 7      1766.331 7        47.296                  
  21715755.312 6   -300188.784 6      2428.145 6        41.268                  
 17 10 16 09 26 25.0000000  0  6G11G10G08G15G18G21                              
  21388878.275 6    509288.246 6     -4023.393 6        41.773                  
  17876094.864 7      6138.222 7        -7.525 7        47.205                  
  18472728.626 8    172067.297 8     -1322.640 8        50.735                  
  22179962.223 7   -327348.180 7      2631.405 7        44.109                  
  19409364.829 7   -219769.484 7      1776.913 7        47.190                  
  21716217.356 6   -302619.015 6      2434.117 6        41.816                  
 17 10 16 09 26 26.0000000  0  6G11G10G08G15G18G21                              
  21388109.336 7    513314.654 7     -4025.688 7        42.694                  
  17876099.626 7      6147.101 7       -14.042 7        45.749                  
  18472477.204 8    173388.900 8     -1321.694 8        49.814                  
  22180467.443 7   -329979.382 7      2626.959 7        45.275                  
  19409704.590 7   -221543.447 7      1775.087 7        47.550                  
  21716675.214 6   -305049.484 6      2439.572 6        40.786                  
 17 10 16 09 26 27.0000000  0  6G11G10G08G15G18G21                              
  21387344.019 7    517340.708 7     -4024.099 7        44.685                  
  17876091.585 7      6155.210 7        -4.433 7        47.135                  
  18472224.308 8    174709.713 8     -1322.395 8        53.488                  
  22180967.284 7   -332611.186 7      2632.203 7        44.604                  
  19410040.787 7   -223317.912 7      1774.829 7        47.105                  
  21717142.064 6   -307480.292 6      2442.820 6        40.151                  
 17 10 16 09 26 28.0000000  0  6G11G10G08G15G18G21                              
  21386576.861 7    521367.138 7     -4023.277 7        43.370                  
  17876087.368 7      6163.230 7        -6.442 7        46.280                  
  18471972.435 8    176030.413 8     -1321.910 8        50.368                  
  22181464.248 7   -335242.866 7      2630.922 7        45.301                  
  19410377.989 7   -225092.217 7      1771.445 7        44.653                  
  21717604.792 6   -309910.742 6      2434.900 6        41.065                  
 17 10 16 09 26 29.0000000  0  6G11G10G08G15G18G21                              
  21385810.942 7    525393.249 7     -4029.068 7        42.734                  
  17876087.238 7      6170.533 7        -3.151 7        44.900                  
  18471723.547 8    177350.361 8     -1322.553 8        51.770                  
  22181967.212 7   -337875.163 7      2635.725 7        46.158                  
  19410716.330 8   -226867.018 8      1774.109 8        48.333                  
  21718063.646 7   -312341.482 7      2434.880 7        43.546                  
 17 10 16 09 26 30.0000000  0  6G11G10G08G15G18G21                              
  21385049.659 7    529419.062 7     -4027.609 7        45.132                  
  17876086.483 7      6177.071 7        -5.119 7        47.127                  
  18471472.424 8    178669.536 8     -1320.882 8        50.684                  
  22182470.497 7   -340508.016 7      2638.257 7        44.736                  
  19411056.762 7   -228642.291 7      1774.028 7        46.713                  
  21718526.583 6   -314772.539 6      2435.575 6        40.543                  
 17 10 16 09 26 31.0000000  0  6G11G10G08G15G18G21                              
  21384276.591 7    533444.379 7     -4031.160 7        44.441                  
  17876080.452 7      6182.689 7        -9.996 7        45.552                  
  18471220.779 8    179987.758 8     -1317.430 8        50.471                  
  22182972.434 7   -343141.615 7      2630.048 7        45.349                  
  19411392.556 8   -230418.236 8      1779.005 8        49.182                  
  21718988.756 6   -317204.076 6      2439.259 6        40.993                  
 17 10 16 09 26 32.0000000  0  6G11G10G08G15G18G21                              
  21383517.117 7    537469.188 7     -4034.782 7        44.363                  
  17876081.904 7      6187.380 7        -2.013 7        44.315                  
  18470970.055 8    181305.036 8     -1315.221 8        50.240                  
  22183471.408 7   -345775.969 7      2628.669 7        46.295                  
  19411731.085 7   -232194.862 7      1777.434 7        47.518                  
  21719453.154 7   -319636.107 7      2434.374 7        42.397                  
 17 10 16 09 26 33.0000000  0  6G11G10G08G15G18G21                              
  21382748.084 7    541493.344 7     -4016.524 7        45.338                  
  17876075.891 7      6190.991 7         0.264 7        44.183                  
  18470721.001 8    182621.193 8     -1317.819 8        51.539                  
  22183979.737 7   -348411.219 7      2634.552 7        43.200                  
  19412068.707 8   -233972.319 8      1778.237 8        48.824                  
  21719914.868 7   -322068.757 7      2438.402 7        42.711                  
 17 10 16 09 26 34.0000000  0  6G11G10G08G15G18G21                              
  21381983.424 7    545517.276 7     -4029.661 7        46.550                  
  17876074.560 7      6193.923 7         1.006 7        45.939                  
  18470470.736 8    183936.658 8     -1316.083 8        51.054                  
  22184474.455 7   -351046.991 7      2642.376 7        46.749                  
  19412410.041 7   -235750.192 7      1782.953 7        47.058                  
  21720385.404 6   -324501.682 6      2430.384 6        41.567                  
 17 10 16 09 26 35.0000000  0  6G11G10G08G15G18G21                              
  21381220.238 7    549541.373 7     -4026.452 7        47.885                  
  17876072.268 7      6196.588 7        -5.764 7        46.573                  
  18470220.043 8    185251.823 8     -1313.085 8        49.686                  
  22184978.133 7   -353682.859 7      2641.338 7        43.959                  
  19412745.170 8   -237528.075 8      1777.665 8        48.168                  
  21720850.610 6   -326934.416 6      2427.990 6        41.451                  
 17 10 16 09 26 36.0000000  0  6G11G10G08G15G18G21                              
  21380453.013 7    553565.768 7     -4017.375 7        46.480                  
  17876072.992 7      6199.115 7         4.614 7        44.401                  
  18469970.761 8    186566.803 8     -1314.828 8        49.903                  
  22185481.012 7   -356318.675 7      2642.612 7        46.362                  
  19413084.900 7   -239305.824 7      1778.511 7        45.695                  
  21721310.188 6   -329366.860 6      2444.539 6        39.466                  
